[
    {
       "name": "La Maison Wine Dining",
       "id": 1,
       "address": "201B Nam Ki Khoi Nghia, ward 7",
       "district": "District 3",
       "phone": "090 4903230",
       "url": "http://www.lamaison.vn/",
       "description": " La Maison Wine Grill Bar is centrally located in Ho Chi Minh City, on Nam Ky Khoi Nghia Street. The restaurant is an ancient villa, located in a small alley, well protected from the busy traffic of Saigon. Here, customers will enjoy the true French cuisine style. La Maison's kitchen is proud to have chef Ngo Thanh Long assisting and the service staff is ready to help you awaken all senses with the best French dishes. La Maison Restaurant is pleased to welcome you at noon and evening every day in a classy and sophisticated space. In particular, we have live music and special events every week you can enjoy the fresh evening atmosphere and lively French music. We share a passion for giving you special and unforgettable experiences for visitors.",
       "imageName": "restaurant1",
       "coordinates": {
           "latitude": 10.788312330304759,
           "longitude": 106.68647936135253
       }
    },
    {
       "name": "Thinh",
       "id": 2,
       "address": "245, Nguyen Van Linh",
       "description": "",
       "district": "District 3",
       "phone": "090 4903230",
       "url": "http://www.lamaison.vn/",
       "imageName": "restaurant2",
       "coordinates": {
           "latitude": 10.758256325746386,
           "longitude": 106.67228491141948
       }
    },
    {
       "name": "Thin",
       "id": 3,
       "address": "245, Nguyen Van Linh",
       "district": "District 3",
       "phone": "090 4903230",
       "url": "http://www.lamaison.vn/",
       "description": "description",
       "imageName": "restaurant2",
       "coordinates": {
           "latitude": 10.758256325746386,
           "longitude": 106.67228491141948
       }
    },
    {
       "name": "Thi",
       "id": 4,
       "address": "245, Nguyen Van Linh",
       "district": "District 3",
       "phone": "090 4903230",
       "url": "http://www.lamaison.vn/",
       "description": "description",
       "imageName": "restaurant2",
       "coordinates": {
           "latitude": 10.758256325746386,
           "longitude": 106.67228491141948
       }
    },
    {
       "name": "Ti",
       "id": 5,
       "address": "245, Nguyen Van Linh",
       "district": "District 3",
       "phone": "090 4903230",
       "url": "http://www.lamaison.vn/",
       "description": "description",
       "imageName": "restaurant2",
       "coordinates": {
           "latitude": 10.758256325746386,
           "longitude": 106.67228491141948
       }
    },
    {
       "name": "T",
       "id": 6,
       "address": "245, Nguyen Van Linh",
       "district": "District 3",
       "phone": "090 4903230",
       "url": "http://www.lamaison.vn/",
       "description": "description",
       "imageName": "restaurant2",
       "coordinates": {
           "latitude": 10.758256325746386,
           "longitude": 106.67228491141948
       }
    },
    {
       "name": "A",
       "id": 7,
       "address": "245, Nguyen Van Linh",
       "district": "District 3",
       "phone": "090 4903230",
       "url": "http://www.lamaison.vn/",
       "description": "description",
       "imageName": "restaurant2",
       "coordinates": {
           "latitude": 10.758256325746386,
           "longitude": 106.67228491141948
       }
    },
    {
       "name": "B",
       "id": 8,
       "address": "245, Nguyen Van Linh",
       "district": "District 3",
       "phone": "090 4903230",
       "url": "http://www.lamaison.vn/",
       "description": "description",
       "imageName": "restaurant2",
       "coordinates": {
           "latitude": 10.758256325746386,
           "longitude": 106.67228491141948
       }
    },
    {
       "name": "C",
       "id": 9,
       "address": "245, Nguyen Van Linh",
       "district": "District 3",
       "phone": "090 4903230",
       "url": "http://www.lamaison.vn/",
       "description": "description",
       "imageName": "restaurant2",
       "coordinates": {
           "latitude": 10.758256325746386,
           "longitude": 106.67228491141948
       }
    },
    {
       "name": "C",
       "id": 10,
       "address": "245, Nguyen Van Linh",
       "district": "District 3",
       "phone": "090 4903230",
       "url": "http://www.lamaison.vn/",
       "description": "description",
       "imageName": "restaurant2",
       "coordinates": {
           "latitude": 10.758256325746386,
           "longitude": 106.67228491141948
       }
    },
    {
       "name": "C",
       "id": 11,
       "address": "245, Nguyen Van Linh",
       "district": "District 3",
       "phone": "090 4903230",
       "url": "http://www.lamaison.vn/",
       "description": "description",
       "imageName": "restaurant2",
       "coordinates": {
           "latitude": 10.758256325746386,
           "longitude": 106.67228491141948
       }
    },
]

